<?xml version="1.0" encoding="utf-8"?> 

<kml xmlns="http://earth.google.com/kml/2.2"> 

	<Document>

	<name>KML for Drift Trace: e017</name>

	<Style id="POI">
		<IconStyle>
			<scale>2.0</scale>
			<Icon><href>http://digerati.aks.ac.kr/VR/style/boat2.png</href></Icon>
		</IconStyle>
		<BalloonStyle>
			<textColor>ff007f00</textColor><bgColor>ffffffff</bgColor><displayMode>default</displayMode>
		</BalloonStyle>
	</Style>

	<Style id="PATH1">
		<LineStyle><color>ff7f7fff</color><width>5</width></LineStyle>
	</Style>

	<Style id="PATH2">
		<LineStyle><color>ffffffff</color><width>5</width></LineStyle>
	</Style>

	<Folder>

		<name>e017</name>

		<Placemark>
			<name>01#출항:제주(濟州)</name>
			<description><![CDATA[<a href="http://www.digerati.kr/mediawiki/index.php/이자정(李子汀)_일행_표류사건"/><img src="http://digerati.aks.ac.kr/VR/style/text.png"/></a><br/>]]></description>
			<styleUrl>#POI</styleUrl>
			<Point><coordinates>126.565708, 33.525834, 0</coordinates></Point>
		</Placemark>

		<Placemark>
			<name>02#표착경유:소안도(所安島)</name>
			<description><![CDATA[<a href="http://www.digerati.kr/mediawiki/index.php/이자정(李子汀)_일행_표류사건"/><img src="http://digerati.aks.ac.kr/VR/style/text.png"/></a><br/>]]></description>
			<styleUrl>#POI</styleUrl>
			<Point><coordinates>126.64929, 34.166899, 0</coordinates></Point>
		</Placemark>

		<Placemark>
			<name>03#재출항:소안도(所安島)</name>
			<description><![CDATA[<a href=""/><img src="http://digerati.aks.ac.kr/VR/style/text.png"/></a><br/>]]></description>
			<styleUrl>#POI</styleUrl>
			<Point><coordinates>126.64929, 34.166899, 0</coordinates></Point>
		</Placemark>

		<Placemark>
			<name>04#표류:사서도(斜鼠島) 앞바다</name>
			<description><![CDATA[<a href="http://www.digerati.kr/mediawiki/index.php/이자정(李子汀)_일행_표류사건"/><img src="http://digerati.aks.ac.kr/VR/style/text.png"/></a><br/>]]></description>
			<styleUrl>#POI</styleUrl>
			<Point><coordinates>126.41324, 33.96825, 0</coordinates></Point>
		</Placemark>

		<Placemark>
			<name>05#지상표착:여도(女島)</name>
			<description><![CDATA[<a href="http://www.digerati.kr/mediawiki/index.php/이자정(李子汀)_일행_표류사건"/><img src="http://digerati.aks.ac.kr/VR/style/text.png"/></a><br/>]]></description>
			<styleUrl>#POI</styleUrl>
			<Point><coordinates>128.344855, 32.006108, 0</coordinates></Point>
		</Placemark>

		<Placemark>
			<name>06#재출항:여도(女島)</name>
			<description><![CDATA[<a href=""/><img src="http://digerati.aks.ac.kr/VR/style/text.png"/></a><br/>]]></description>
			<styleUrl>#POI</styleUrl>
			<Point><coordinates>128.354436, 31.989157, 0</coordinates></Point>
		</Placemark>

		<Placemark>
			<name>07#지상표착:대도(大島)</name>
			<description><![CDATA[<a href="http://www.digerati.kr/mediawiki/index.php/이자정(李子汀)_일행_표류사건"/><img src="http://digerati.aks.ac.kr/VR/style/text.png"/></a><br/>]]></description>
			<styleUrl>#POI</styleUrl>
			<Point><coordinates>129.496194, 28.388534, 0</coordinates></Point>
		</Placemark>

		<Placemark>
			<name>08#송환경유:덕지도(德之島)</name>
			<description><![CDATA[<a href="http://www.digerati.kr/mediawiki/index.php/이자정(李子汀)_일행_표류사건"/><img src="http://digerati.aks.ac.kr/VR/style/text.png"/></a><br/>]]></description>
			<styleUrl>#POI</styleUrl>
			<Point><coordinates>129.016467, 27.725605, 0</coordinates></Point>
		</Placemark>

		<Placemark>
			<name>09#송환경유:게라마[慶良間島] 추정</name>
			<description><![CDATA[<a href="http://www.digerati.kr/mediawiki/index.php/이자정(李子汀)_일행_표류사건"/><img src="http://digerati.aks.ac.kr/VR/style/text.png"/></a><br/>]]></description>
			<styleUrl>#POI</styleUrl>
			<Point><coordinates>128.617688, 27.355534, 0</coordinates></Point>
		</Placemark>

		<Placemark>
			<name>10#송환경유:나하(那覇)</name>
			<description><![CDATA[<a href="http://www.digerati.kr/mediawiki/index.php/이자정(李子汀)_일행_표류사건"/><img src="http://digerati.aks.ac.kr/VR/style/text.png"/></a><br/>]]></description>
			<styleUrl>#POI</styleUrl>
			<Point><coordinates>127.683241, 26.224703, 0</coordinates></Point>
		</Placemark>

		<Placemark>
			<name>11#송환경유:목주촌(牧湊村)</name>
			<description><![CDATA[<a href="http://www.digerati.kr/media2"/><img src="http://digerati.aks.ac.kr/VR/style/text.png"/></a><br/>]]></description>
			<styleUrl>#POI</styleUrl>
			<Point><coordinates>127.656021, 26.163981, 0</coordinates></Point>
		</Placemark>

		<Placemark>
			<name>12#송환경유:복건성(福建省)</name>
			<description><![CDATA[<a href="http://www.digerati.kr/mediawiki/index.php/이자정(李子汀)_일행_표류사건"/><img src="http://digerati.aks.ac.kr/VR/style/text.png"/></a><br/>]]></description>
			<styleUrl>#POI</styleUrl>
			<Point><coordinates>119.300806, 26.054189, 0</coordinates></Point>
		</Placemark>

		<Placemark>
			<name>13#송환경유:제해현(濟海縣)</name>
			<description><![CDATA[<a href="http://www.digerati.kr/mediawiki/index.php/이자정(李子汀)_일행_표류사건"/><img src="http://digerati.aks.ac.kr/VR/style/text.png"/></a><br/>]]></description>
			<styleUrl>#POI</styleUrl>
			<Point><coordinates>116.218801, 39.903624, 0</coordinates></Point>
		</Placemark>

		<Placemark>
			<name>14#송환경유:북경(北京)</name>
			<description><![CDATA[<a href="http://www.digerati.kr/mediawiki/index.php/이자정(李子汀)_일행_표류사건"/><img src="http://digerati.aks.ac.kr/VR/style/text.png"/></a><br/>]]></description>
			<styleUrl>#POI</styleUrl>
			<Point><coordinates>116.406566, 39.923087, 0</coordinates></Point>
		</Placemark>

		<Placemark>
			<name>15#송환:의주(義州)</name>
			<description><![CDATA[<a href="http://www.digerati.kr/mediawiki/index.php/이자정(李子汀)_일행_표류사건"/><img src="http://digerati.aks.ac.kr/VR/style/text.png"/></a><br/>]]></description>
			<styleUrl>#POI</styleUrl>
			<Point><coordinates>124.533878, 40.197497, 0</coordinates></Point>
		</Placemark>

		<Placemark>
			<name>16#귀환경유:경기감영(京畿監營)</name>
			<description><![CDATA[<a href="http://www.digerati.kr/mediawiki/index.php/이자정(李子汀)_일행_표류사건"/><img src="http://digerati.aks.ac.kr/VR/style/text.png"/></a><br/>]]></description>
			<styleUrl>#POI</styleUrl>
			<Point><coordinates>126.967207, 37.566706, 0</coordinates></Point>
		</Placemark>

		<Placemark>
			<name>17#귀환경유:영암(靈巖) 도회관(都會官)</name>
			<description><![CDATA[<a href="http://www.digerati.kr/mediawiki/index.php/이자정(李子汀)_일행_표류사건"/><img src="http://digerati.aks.ac.kr/VR/style/text.png"/></a><br/>]]></description>
			<styleUrl>#POI</styleUrl>
			<Point><coordinates>126.621002, 34.398563, 0</coordinates></Point>
		</Placemark>

		<Placemark>
			<name>18#귀환:조천(朝天)</name>
			<description><![CDATA[<a href="http://www.digerati.kr/mediawiki/index.php/이자정(李子汀)_일행_표류사건"/><img src="http://digerati.aks.ac.kr/VR/style/text.png"/></a><br/>]]></description>
			<styleUrl>#POI</styleUrl>
			<Point><coordinates>126.634952, 33.541033, 0</coordinates></Point>
		</Placemark>

		<Placemark>
			<name>e017 Path</name>
			<styleUrl>#PATH1</styleUrl>
			<LineString>
			<coordinates>
        126.565708,33.525834,0
        126.64929,34.166899,0
        126.64929,34.166899,0
        126.41324,33.96825,0
        128.344855,32.006108,0
      </coordinates>
			</LineString> 
		</Placemark>

		<Placemark>
			<name>e017 Path</name>
			<styleUrl>#PATH2</styleUrl>
			<LineString>
			<coordinates>
        128.344855,32.006108,0
        128.354436,31.989157,0
        129.496194,28.388534,0
        129.016467,27.725605,0
        128.617688,27.355534,0
        127.683241,26.224703,0
        127.656021,26.163981,0
        119.300806,26.054189,0
        116.218801,39.903624,0
        116.406566,39.923087,0
        124.533878,40.197497,0
        126.967207,37.566706,0
        126.621002,34.398563,0
        126.634952,33.541033,0
      </coordinates>
			</LineString> 
		</Placemark>

	</Folder>
</Document>
</kml>
