<?xml version="1.0" encoding="utf-8"?> 

<kml xmlns="http://earth.google.com/kml/2.2"> 

	<Document>

	<name>KML for Drift Trace: e020</name>

	<Style id="POI">
		<IconStyle>
			<scale>2.0</scale>
			<Icon><href>http://digerati.aks.ac.kr/VR/style/boat2.png</href></Icon>
		</IconStyle>
		<BalloonStyle>
			<textColor>ff007f00</textColor><bgColor>ffffffff</bgColor><displayMode>default</displayMode>
		</BalloonStyle>
	</Style>

	<Style id="PATH1">
		<LineStyle><color>ff7f7fff</color><width>5</width></LineStyle>
	</Style>

	<Style id="PATH2">
		<LineStyle><color>ffffffff</color><width>5</width></LineStyle>
	</Style>

	<Folder>

		<name>e020</name>

		<Placemark>
			<name>01#출항:화북(禾北)</name>
			<description><![CDATA[<a href="http://www.digerati.kr/mediawiki/index.php/고봉익(高奉益)_일행_표류사건"/><img src="http://digerati.aks.ac.kr/VR/style/text.png"/></a><br/>]]></description>
			<styleUrl>#POI</styleUrl>
			<Point><coordinates>126.565708, 33.525834, 0</coordinates></Point>
		</Placemark>

		<Placemark>
			<name>02#지상표착:오도(五島)</name>
			<description><![CDATA[<a href="http://www.digerati.kr/mediawiki/index.php/고봉익(高奉益)_일행_표류사건"/><img src="http://digerati.aks.ac.kr/VR/style/text.png"/></a><br/>]]></description>
			<styleUrl>#POI</styleUrl>
			<Point><coordinates>128.839769, 32.695264, 0</coordinates></Point>
		</Placemark>

		<Placemark>
			<name>03#송환경유:장기(長崎)</name>
			<description><![CDATA[<a href="http://www.digerati.kr/mediawiki/index.php/고봉익(高奉益)_일행_표류사건"/><img src="http://digerati.aks.ac.kr/VR/style/text.png"/></a><br/>]]></description>
			<styleUrl>#POI</styleUrl>
			<Point><coordinates>129.867462, 32.745893, 0</coordinates></Point>
		</Placemark>

		<Placemark>
			<name>04#송환경유:쓰시마[對馬島]</name>
			<description><![CDATA[<a href="http://www.digerati.kr/mediawiki/index.php/고봉익(高奉益)_일행_표류사건"/><img src="http://digerati.aks.ac.kr/VR/style/text.png"/></a><br/>]]></description>
			<styleUrl>#POI</styleUrl>
			<Point><coordinates>129.29048, 34.198231, 0</coordinates></Point>
		</Placemark>

		<Placemark>
			<name>05#송환:거제(巨濟)</name>
			<description><![CDATA[<a href="http://www.digerati.kr/mediawiki/index.php/고봉익(高奉益)_일행_표류사건"/><img src="http://digerati.aks.ac.kr/VR/style/text.png"/></a><br/>]]></description>
			<styleUrl>#POI</styleUrl>
			<Point><coordinates>128.729869, 34.862379, 0</coordinates></Point>
		</Placemark>

		<Placemark>
			<name>06#귀환경유:부산진(釜山鎭)</name>
			<description><![CDATA[<a href="http://www.digerati.kr/mediawiki/index.php/고봉익(高奉益)_일행_표류사건"/><img src="http://digerati.aks.ac.kr/VR/style/text.png"/></a><br/>]]></description>
			<styleUrl>#POI</styleUrl>
			<Point><coordinates>129.053489, 35.12686, 0</coordinates></Point>
		</Placemark>

		<Placemark>
			<name>07#귀환경유:동래(東萊)</name>
			<description><![CDATA[<a href="http://www.digerati.kr/mediawiki/index.php/고봉익(高奉益)_일행_표류사건"/><img src="http://digerati.aks.ac.kr/VR/style/text.png"/></a><br/>]]></description>
			<styleUrl>#POI</styleUrl>
			<Point><coordinates>129.086338, 35.203394, 0</coordinates></Point>
		</Placemark>

		<Placemark>
			<name>08#귀환경유:동래(東萊) 좌수영(左水營)</name>
			<description><![CDATA[<a href="http://www.digerati.kr/mediawiki/index.php/고봉익(高奉益)_일행_표류사건"/><img src="http://digerati.aks.ac.kr/VR/style/text.png"/></a><br/>]]></description>
			<styleUrl>#POI</styleUrl>
			<Point><coordinates>129.116856, 35.169863, 0</coordinates></Point>
		</Placemark>

		<Placemark>
			<name>09#귀환경유:이진(梨津)</name>
			<description><![CDATA[<a href="http://www.digerati.kr/mediawiki/index.php/고봉익(高奉益)_일행_표류사건"/><img src="http://digerati.aks.ac.kr/VR/style/text.png"/></a><br/>]]></description>
			<styleUrl>#POI</styleUrl>
			<Point><coordinates>126.621002, 34.398563, 0</coordinates></Point>
		</Placemark>

		<Placemark>
			<name>10#귀환:애월(涯月)</name>
			<description><![CDATA[<a href="http://www.digerati.kr/mediawiki/index.php/고봉익(高奉益)_일행_표류사건"/><img src="http://digerati.aks.ac.kr/VR/style/text.png"/></a><br/>]]></description>
			<styleUrl>#POI</styleUrl>
			<Point><coordinates>126.322266, 33.466957, 0</coordinates></Point>
		</Placemark>

		<Placemark>
			<name>e020 Path</name>
			<styleUrl>#PATH1</styleUrl>
			<LineString>
			<coordinates>
			126.565708,33.525834,0
			128.839769,32.695264,0
			</coordinates>
			</LineString> 
		</Placemark>

		<Placemark>
			<name>e020 Path</name>
			<styleUrl>#PATH2</styleUrl>
			<LineString>
			<coordinates>
			128.839769,32.695264,0
			129.867462,32.745893,0
			129.29048,34.198231,0
			128.729869,34.862379,0
			129.053489,35.12686,0
			129.086338,35.203394,0
			129.116856,35.169863,0
			126.621002,34.398563,0
			126.322266,33.466957,0
			</coordinates>
			</LineString> 
		</Placemark>

	</Folder>
</Document>
</kml>
