<?xml version="1.0" encoding="utf-8"?> 

<kml xmlns="http://earth.google.com/kml/2.2"> 

	<Document>

	<name>KML for Drift Trace: e022</name>

	<Style id="POI">
		<IconStyle>
			<scale>2.0</scale>
			<Icon><href>http://digerati.aks.ac.kr/VR/style/boat2.png</href></Icon>
		</IconStyle>
		<BalloonStyle>
			<textColor>ff007f00</textColor><bgColor>ffffffff</bgColor><displayMode>default</displayMode>
		</BalloonStyle>
	</Style>

	<Style id="PATH1">
		<LineStyle><color>ff7f7fff</color><width>5</width></LineStyle>
	</Style>

	<Style id="PATH2">
		<LineStyle><color>ffffffff</color><width>5</width></LineStyle>
	</Style>

	<Folder>

		<name>e022</name>

		<Placemark>
			<name>01#출항:우도(牛島)</name>
			<description><![CDATA[<a href="http://www.digerati.kr/mediawiki/index.php/윤광록(尹光祿)_일행_표류사건"/><img src="http://digerati.aks.ac.kr/VR/style/text.png"/></a><br/>]]></description>
			<styleUrl>#POI</styleUrl>
			<Point><coordinates>126.940358, 33.508663, 0</coordinates></Point>
		</Placemark>

		<Placemark>
			<name>02#지상표착:고토[五島]</name>
			<description><![CDATA[<a href="http://www.digerati.kr/mediawiki/index.php/윤광록(尹光祿)_일행_표류사건"/><img src="http://digerati.aks.ac.kr/VR/style/text.png"/></a><br/>]]></description>
			<styleUrl>#POI</styleUrl>
			<Point><coordinates>128.839769, 32.695264, 0</coordinates></Point>
		</Placemark>

		<Placemark>
			<name>03#송환경유:오도와 장기도 사이 추정</name>
			<description><![CDATA[<a href="http://www.digerati.kr/mediawiki/index.php/윤광록(尹光祿)_일행_표류사건"/><img src="http://digerati.aks.ac.kr/VR/style/text.png"/></a><br/>]]></description>
			<styleUrl>#POI</styleUrl>
			<Point><coordinates>129.752499, 32.712087, 0</coordinates></Point>
		</Placemark>

		<Placemark>
			<name>04#송환경유:장기(長崎)</name>
			<description><![CDATA[<a href="http://www.digerati.kr/mediawiki/index.php/윤광록(尹光祿)_일행_표류사건"/><img src="http://digerati.aks.ac.kr/VR/style/text.png"/></a><br/>]]></description>
			<styleUrl>#POI</styleUrl>
			<Point><coordinates>129.867462, 32.745893, 0</coordinates></Point>
		</Placemark>

		<Placemark>
			<name>05#송환경유:쓰시마[對馬島]</name>
			<description><![CDATA[<a href="http://www.digerati.kr/mediawiki/index.php/윤광록(尹光祿)_일행_표류사건"/><img src="http://digerati.aks.ac.kr/VR/style/text.png"/></a><br/>]]></description>
			<styleUrl>#POI</styleUrl>
			<Point><coordinates>129.29048, 34.198231, 0</coordinates></Point>
		</Placemark>

		<Placemark>
			<name>06#송환경유:쓰시마[對馬島]</name>
			<description><![CDATA[<a href="http://www.digerati.kr/mediawiki/index.php/윤광록(尹光祿)_일행_표류사건"/><img src="http://digerati.aks.ac.kr/VR/style/text.png"/></a><br/>]]></description>
			<styleUrl>#POI</styleUrl>
			<Point><coordinates>129.29048, 34.198231, 0</coordinates></Point>
		</Placemark>

		<Placemark>
			<name>07#송환:부산진(釜山鎭)</name>
			<description><![CDATA[<a href="http://www.digerati.kr/mediawiki/index.php/윤광록(尹光祿)_일행_표류사건"/><img src="http://digerati.aks.ac.kr/VR/style/text.png"/></a><br/>]]></description>
			<styleUrl>#POI</styleUrl>
			<Point><coordinates>129.053489, 35.12686, 0</coordinates></Point>
		</Placemark>

		<Placemark>
			<name>08#귀환경유:동래(東萊)</name>
			<description><![CDATA[<a href="http://www.digerati.kr/mediawiki/index.php/윤광록(尹光祿)_일행_표류사건"/><img src="http://digerati.aks.ac.kr/VR/style/text.png"/></a><br/>]]></description>
			<styleUrl>#POI</styleUrl>
			<Point><coordinates>129.086338, 35.203394, 0</coordinates></Point>
		</Placemark>

		<Placemark>
			<name>09#귀환경유:이진(梨津)</name>
			<description><![CDATA[<a href="http://www.digerati.kr/mediawiki/index.php/윤광록(尹光祿)_일행_표류사건"/><img src="http://digerati.aks.ac.kr/VR/style/text.png"/></a><br/>]]></description>
			<styleUrl>#POI</styleUrl>
			<Point><coordinates>126.621002, 34.398563, 0</coordinates></Point>
		</Placemark>

		<Placemark>
			<name>10#귀환:화북(禾北)</name>
			<description><![CDATA[<a href="http://www.digerati.kr/mediawiki/index.php/윤광록(尹光祿)_일행_표류사건"/><img src="http://digerati.aks.ac.kr/VR/style/text.png"/></a><br/>]]></description>
			<styleUrl>#POI</styleUrl>
			<Point><coordinates>126.565708, 33.525834, 0</coordinates></Point>
		</Placemark>

		<Placemark>
			<name>e022 Path</name>
			<styleUrl>#PATH1</styleUrl>
			<LineString>
			<coordinates>
			126.940358,33.508663,0
			128.839769,32.695264,0
			</coordinates>
			</LineString> 
		</Placemark>

		<Placemark>
			<name>e022 Path</name>
			<styleUrl>#PATH2</styleUrl>
			<LineString>
			<coordinates>
			128.839769,32.695264,0
			129.752499,32.712087,0
			129.867462,32.745893,0
			129.29048,34.198231,0
			129.29048,34.198231,0
			129.053489,35.12686,0
			129.086338,35.203394,0
			126.621002,34.398563,0
			126.565708,33.525834,0
			</coordinates>
			</LineString> 
		</Placemark>

	</Folder>
</Document>
</kml>
