<?xml version="1.0" encoding="utf-8"?> 

<kml xmlns="http://earth.google.com/kml/2.2"> 

	<Document>

	<name>KML for Drift Trace: e028</name>

	<Style id="POI">
		<IconStyle>
			<scale>2.0</scale>
			<Icon><href>http://digerati.aks.ac.kr/VR/style/boat2.png</href></Icon>
		</IconStyle>
		<BalloonStyle>
			<textColor>ff007f00</textColor><bgColor>ffffffff</bgColor><displayMode>default</displayMode>
		</BalloonStyle>
	</Style>

	<Style id="PATH1">
		<LineStyle><color>ff7f7fff</color><width>5</width></LineStyle>
	</Style>

	<Style id="PATH2">
		<LineStyle><color>ffffffff</color><width>5</width></LineStyle>
	</Style>

	<Folder>

		<name>e028</name>

		<Placemark>
			<name>01#출항:조천(朝天)</name>
			<description><![CDATA[<a href="http://www.digerati.kr/mediawiki/index.php/마영(馬英)_일행_표류사건"/><img src="http://digerati.aks.ac.kr/VR/style/text.png"/></a><br/>]]></description>
			<styleUrl>#POI</styleUrl>
			<Point><coordinates>126.634952, 33.541033, 0</coordinates></Point>
		</Placemark>

		<Placemark>
			<name>02#표착경유:양산(梁山)</name>
			<description><![CDATA[<a href="http://www.digerati.kr/mediawiki/index.php/마영(馬英)_일행_표류사건"/><img src="http://digerati.aks.ac.kr/VR/style/text.png"/></a><br/>]]></description>
			<styleUrl>#POI</styleUrl>
			<Point><coordinates>129.309763, 35.327071, 0</coordinates></Point>
		</Placemark>

		<Placemark>
			<name>03#표착경유:소안도(所安島)</name>
			<description><![CDATA[<a href="http://www.digerati.kr/mediawiki/index.php/마영(馬英)_일행_표류사건"/><img src="http://digerati.aks.ac.kr/VR/style/text.png"/></a><br/>]]></description>
			<styleUrl>#POI</styleUrl>
			<Point><coordinates>126.64929, 34.166899, 0</coordinates></Point>
		</Placemark>

		<Placemark>
			<name>04#재출항:소안도(所安島)</name>
			<description><![CDATA[<a href=""/><img src="http://digerati.aks.ac.kr/VR/style/text.png"/></a><br/>]]></description>
			<styleUrl>#POI</styleUrl>
			<Point><coordinates>126.64929, 34.166899, 0</coordinates></Point>
		</Placemark>

		<Placemark>
			<name>05#표류:사서도(斜鼠島) 앞바다</name>
			<description><![CDATA[<a href="http://www.digerati.kr/mediawiki/index.php/마영(馬英)_일행_표류사건"/><img src="http://digerati.aks.ac.kr/VR/style/text.png"/></a><br/>]]></description>
			<styleUrl>#POI</styleUrl>
			<Point><coordinates>126.41324, 33.96825, 0</coordinates></Point>
		</Placemark>

		<Placemark>
			<name>06#선상표착:이양선 추정</name>
			<description><![CDATA[<a href="http://www.digerati.kr/mediawiki/index.php/마영(馬英)_일행_표류사건"/><img src="http://digerati.aks.ac.kr/VR/style/text.png"/></a><br/>]]></description>
			<styleUrl>#POI</styleUrl>
			<Point><coordinates>125.149822, 28.099436, 0</coordinates></Point>
		</Placemark>

		<Placemark>
			<name>07#지상표착:복건성(福建省)</name>
			<description><![CDATA[<a href="http://www.digerati.kr/mediawiki/index.php/마영(馬英)_일행_표류사건"/><img src="http://digerati.aks.ac.kr/VR/style/text.png"/></a><br/>]]></description>
			<styleUrl>#POI</styleUrl>
			<Point><coordinates>119.296384, 26.07703, 0</coordinates></Point>
		</Placemark>

		<Placemark>
			<name>08#송환경유:북경(北京)</name>
			<description><![CDATA[<a href="http://www.digerati.kr/mediawiki/index.php/마영(馬英)_일행_표류사건"/><img src="http://digerati.aks.ac.kr/VR/style/text.png"/></a><br/>]]></description>
			<styleUrl>#POI</styleUrl>
			<Point><coordinates>116.406566, 39.923087, 0</coordinates></Point>
		</Placemark>

		<Placemark>
			<name>09#송환:의주(義州)</name>
			<description><![CDATA[<a href="http://www.digerati.kr/mediawiki/index.php/마영(馬英)_일행_표류사건"/><img src="http://digerati.aks.ac.kr/VR/style/text.png"/></a><br/>]]></description>
			<styleUrl>#POI</styleUrl>
			<Point><coordinates>124.533878, 40.197497, 0</coordinates></Point>
		</Placemark>

		<Placemark>
			<name>10#귀환경유:도회관(都會官)</name>
			<description><![CDATA[<a href="http://www.digerati.kr/mediawiki/index.php/마영(馬英)_일행_표류사건"/><img src="http://digerati.aks.ac.kr/VR/style/text.png"/></a><br/>]]></description>
			<styleUrl>#POI</styleUrl>
			<Point><coordinates>126.709486, 34.402149, 0</coordinates></Point>
		</Placemark>

		<Placemark>
			<name>11#귀환:화북(禾北)</name>
			<description><![CDATA[<a href="http://www.digerati.kr/mediawiki/index2"/><img src="http://digerati.aks.ac.kr/VR/style/text.png"/></a><br/>]]></description>
			<styleUrl>#POI</styleUrl>
			<Point><coordinates>126.565708, 33.525834, 0</coordinates></Point>
		</Placemark>

		<Placemark>
			<name>e028 Path</name>
			<styleUrl>#PATH1</styleUrl>
			<LineString>
			<coordinates>
			126.634952,33.541033,0
			129.309763,35.327071,0
			126.64929,34.166899,0
			</coordinates>
			</LineString> 
		</Placemark>

		<Placemark>
			<name>e028 Path</name>
			<styleUrl>#PATH2</styleUrl>
			<LineString>
			<coordinates>
			126.64929,34.166899,0
			126.64929,34.166899,0
			126.41324,33.96825,0
			125.149822,28.099436,0
			119.296384,26.07703,0
			116.406566,39.923087,0
			124.533878,40.197497,0
			126.709486,34.402149,0
			126.565708,33.525834,0
			</coordinates>
			</LineString> 
		</Placemark>

	</Folder>
</Document>
</kml>
